[{"id":"1","name":"Equinix Ashburn","city":"Ashburn","country_code":"US","lat":39.0168,"lng":-77.459,"participant_count":351},{"id":"2","name":"Equinix Chicago","city":"Chicago","country_code":"US","lat":41.8781,"lng":-87.6298,"participant_count":252},{"id":"3","name":"Equinix Dallas","city":"Dallas","country_code":"US","lat":32.7767,"lng":-96.797,"participant_count":200},{"id":"4","name":"Equinix San Jose","city":"San Jose","country_code":"US","lat":37.3382,"lng":-121.8863,"participant_count":235},{"id":"5","name":"Equinix New York","city":"New York","country_code":"US","lat":40.7128,"lng":-74.006,"participant_count":280},{"id":"6","name":"Equinix Los Angeles","city":"Los Angeles","country_code":"US","lat":34.0522,"lng":-118.2437,"participant_count":210},{"id":"7","name":"Equinix Seattle","city":"Seattle","country_code":"US","lat":47.6062,"lng":-122.3321,"participant_count":180},{"id":"8","name":"Equinix Miami","city":"Miami","country_code":"US","lat":25.7617,"lng":-80.1918,"participant_count":150},{"id":"9","name":"Equinix Atlanta","city":"Atlanta","country_code":"US","lat":33.749,"lng":-84.388,"participant_count":140},{"id":"26","name":"DE-CIX Frankfurt","city":"Frankfurt","country_code":"DE","lat":50.1109,"lng":8.6821,"participant_count":1100},{"id":"31","name":"AMS-IX","city":"Amsterdam","country_code":"NL","lat":52.3676,"lng":4.9041,"participant_count":900},{"id":"18","name":"LINX LON1","city":"London","country_code":"GB","lat":51.5074,"lng":-0.1278,"participant_count":950},{"id":"20","name":"LINX LON2","city":"London","country_code":"GB","lat":51.52,"lng":-0.07,"participant_count":400},{"id":"48","name":"France-IX Paris","city":"Paris","country_code":"FR","lat":48.8566,"lng":2.3522,"participant_count":450},{"id":"64","name":"MIX-IT","city":"Milan","country_code":"IT","lat":45.4642,"lng":9.19,"participant_count":280},{"id":"79","name":"MSK-IX","city":"Moscow","country_code":"RU","lat":55.7558,"lng":37.6173,"participant_count":600},{"id":"49","name":"SwissIX","city":"Zurich","country_code":"CH","lat":47.3769,"lng":8.5417,"participant_count":180},{"id":"32","name":"VIX","city":"Vienna","country_code":"AT","lat":48.2082,"lng":16.3738,"participant_count":160},{"id":"50","name":"Netnod Stockholm","city":"Stockholm","country_code":"SE","lat":59.3293,"lng":18.0686,"participant_count":200},{"id":"51","name":"FICIX","city":"Helsinki","country_code":"FI","lat":60.1699,"lng":24.9384,"participant_count":80},{"id":"52","name":"DIX","city":"Copenhagen","country_code":"DK","lat":55.6761,"lng":12.5683,"participant_count":90},{"id":"53","name":"NIX.CZ","city":"Prague","country_code":"CZ","lat":50.0755,"lng":14.4378,"participant_count":120},{"id":"87","name":"EPIX Warsaw","city":"Warsaw","country_code":"PL","lat":52.2297,"lng":21.0122,"participant_count":180},{"id":"33","name":"DE-CIX Munich","city":"Munich","country_code":"DE","lat":48.1351,"lng":11.582,"participant_count":200},{"id":"34","name":"DE-CIX Hamburg","city":"Hamburg","country_code":"DE","lat":53.5511,"lng":9.9937,"participant_count":120},{"id":"35","name":"DE-CIX Dusseldorf","city":"Dusseldorf","country_code":"DE","lat":51.2277,"lng":6.7735,"participant_count":100},{"id":"36","name":"Equinix Singapore","city":"Singapore","country_code":"SG","lat":1.3521,"lng":103.8198,"participant_count":350},{"id":"37","name":"Equinix Hong Kong","city":"Hong Kong","country_code":"HK","lat":22.3193,"lng":114.1694,"participant_count":250},{"id":"38","name":"Equinix Tokyo","city":"Tokyo","country_code":"JP","lat":35.6762,"lng":139.6503,"participant_count":300},{"id":"39","name":"Equinix Osaka","city":"Osaka","country_code":"JP","lat":34.6937,"lng":135.5023,"participant_count":120},{"id":"40","name":"Equinix Sydney","city":"Sydney","country_code":"AU","lat":-33.8688,"lng":151.2093,"participant_count":280},{"id":"41","name":"Equinix Melbourne","city":"Melbourne","country_code":"AU","lat":-37.8136,"lng":144.9631,"participant_count":150},{"id":"42","name":"JPNAP Tokyo","city":"Tokyo","country_code":"JP","lat":35.6895,"lng":139.6917,"participant_count":220},{"id":"43","name":"HKIX","city":"Hong Kong","country_code":"HK","lat":22.2783,"lng":114.1747,"participant_count":280},{"id":"44","name":"SGIX","city":"Singapore","country_code":"SG","lat":1.276,"lng":103.7993,"participant_count":180},{"id":"45","name":"BBIX Tokyo","city":"Tokyo","country_code":"JP","lat":35.6812,"lng":139.7671,"participant_count":150},{"id":"46","name":"KINX","city":"Seoul","country_code":"KR","lat":37.5665,"lng":126.978,"participant_count":200},{"id":"47","name":"TWIX","city":"Taipei","country_code":"TW","lat":25.033,"lng":121.5654,"participant_count":100},{"id":"54","name":"DE-CIX Istanbul","city":"Istanbul","country_code":"TR","lat":41.0082,"lng":28.9784,"participant_count":120},{"id":"55","name":"DE-CIX Madrid","city":"Madrid","country_code":"ES","lat":40.4168,"lng":-3.7038,"participant_count":140},{"id":"56","name":"DE-CIX Marseille","city":"Marseille","country_code":"FR","lat":43.2965,"lng":5.3698,"participant_count":100},{"id":"57","name":"DE-CIX Delhi","city":"Delhi","country_code":"IN","lat":28.7041,"lng":77.1025,"participant_count":200},{"id":"58","name":"DE-CIX Mumbai","city":"Mumbai","country_code":"IN","lat":19.076,"lng":72.8777,"participant_count":300},{"id":"59","name":"DE-CIX Chennai","city":"Chennai","country_code":"IN","lat":13.0827,"lng":80.2707,"participant_count":100},{"id":"60","name":"DE-CIX Kolkata","city":"Kolkata","country_code":"IN","lat":22.5726,"lng":88.3639,"participant_count":80},{"id":"61","name":"JINX","city":"Johannesburg","country_code":"ZA","lat":-26.2041,"lng":28.0473,"participant_count":120},{"id":"62","name":"NAPAfrica","city":"Johannesburg","country_code":"ZA","lat":-26.1076,"lng":28.0567,"participant_count":500},{"id":"63","name":"KIXP","city":"Nairobi","country_code":"KE","lat":-1.2921,"lng":36.8219,"participant_count":80},{"id":"65","name":"GigaPIX","city":"Lisbon","country_code":"PT","lat":38.7223,"lng":-9.1393,"participant_count":70},{"id":"66","name":"CATNIX","city":"Barcelona","country_code":"ES","lat":41.3874,"lng":2.1686,"participant_count":60},{"id":"67","name":"IX.br Sao Paulo","city":"Sao Paulo","country_code":"BR","lat":-23.5505,"lng":-46.6333,"participant_count":2800},{"id":"68","name":"IX.br Rio","city":"Rio de Janeiro","country_code":"BR","lat":-22.9068,"lng":-43.1729,"participant_count":400},{"id":"69","name":"IX.br Fortaleza","city":"Fortaleza","country_code":"BR","lat":-3.7172,"lng":-38.5433,"participant_count":250},{"id":"70","name":"IX.br Porto Alegre","city":"Porto Alegre","country_code":"BR","lat":-30.0346,"lng":-51.2177,"participant_count":200},{"id":"71","name":"CABASE Buenos Aires","city":"Buenos Aires","country_code":"AR","lat":-34.6037,"lng":-58.3816,"participant_count":120},{"id":"72","name":"PIT Santiago","city":"Santiago","country_code":"CL","lat":-33.4489,"lng":-70.6693,"participant_count":80},{"id":"73","name":"IX.co Bogota","city":"Bogota","country_code":"CO","lat":4.711,"lng":-74.0721,"participant_count":100},{"id":"74","name":"MEX-IX","city":"Mexico City","country_code":"MX","lat":19.4326,"lng":-99.1332,"participant_count":120},{"id":"75","name":"TorIX","city":"Toronto","country_code":"CA","lat":43.6532,"lng":-79.3832,"participant_count":250},{"id":"76","name":"QIX","city":"Montreal","country_code":"CA","lat":45.5017,"lng":-73.5673,"participant_count":120},{"id":"77","name":"YYCIX","city":"Calgary","country_code":"CA","lat":51.0447,"lng":-114.0719,"participant_count":60},{"id":"78","name":"VANIX","city":"Vancouver","country_code":"CA","lat":49.2827,"lng":-123.1207,"participant_count":80},{"id":"80","name":"NIXI Mumbai","city":"Mumbai","country_code":"IN","lat":19.076,"lng":72.8777,"participant_count":400},{"id":"81","name":"NIXI Delhi","city":"Delhi","country_code":"IN","lat":28.6139,"lng":77.209,"participant_count":350},{"id":"82","name":"NIXI Chennai","city":"Chennai","country_code":"IN","lat":13.0827,"lng":80.2707,"participant_count":200},{"id":"83","name":"CNIX","city":"Beijing","country_code":"CN","lat":39.9042,"lng":116.4074,"participant_count":100},{"id":"84","name":"HKIX2","city":"Hong Kong","country_code":"HK","lat":22.3964,"lng":114.1095,"participant_count":150},{"id":"85","name":"MyIX","city":"Kuala Lumpur","country_code":"MY","lat":3.139,"lng":101.6869,"participant_count":120},{"id":"86","name":"PhOpenIX","city":"Manila","country_code":"PH","lat":14.5995,"lng":120.9842,"participant_count":80},{"id":"88","name":"BIX Budapest","city":"Budapest","country_code":"HU","lat":47.4979,"lng":19.0402,"participant_count":100},{"id":"89","name":"SIX Seattle","city":"Seattle","country_code":"US","lat":47.615,"lng":-122.35,"participant_count":350},{"id":"90","name":"AMS-IX Hong Kong","city":"Hong Kong","country_code":"HK","lat":22.37,"lng":114.16,"participant_count":80},{"id":"91","name":"LINX Manchester","city":"Manchester","country_code":"GB","lat":53.4808,"lng":-2.2426,"participant_count":120},{"id":"92","name":"IX Australia Sydney","city":"Sydney","country_code":"AU","lat":-33.86,"lng":151.21,"participant_count":200},{"id":"93","name":"IX Australia Melbourne","city":"Melbourne","country_code":"AU","lat":-37.81,"lng":144.96,"participant_count":150},{"id":"94","name":"IX Australia Perth","city":"Perth","country_code":"AU","lat":-31.9505,"lng":115.8605,"participant_count":60},{"id":"95","name":"IX Australia Brisbane","city":"Brisbane","country_code":"AU","lat":-27.4698,"lng":153.0251,"participant_count":70},{"id":"96","name":"NYIIX","city":"New York","country_code":"US","lat":40.7282,"lng":-73.7949,"participant_count":200},{"id":"97","name":"AMS-IX Caribbean","city":"Willemstad","country_code":"CW","lat":12.1696,"lng":-68.99,"participant_count":30},{"id":"98","name":"UAE-IX","city":"Dubai","country_code":"AE","lat":25.2048,"lng":55.2708,"participant_count":120},{"id":"99","name":"Jeddah IX","city":"Jeddah","country_code":"SA","lat":21.5433,"lng":39.1728,"participant_count":40},{"id":"100","name":"MANRS IX Lagos","city":"Lagos","country_code":"NG","lat":6.5244,"lng":3.3792,"participant_count":60}]